"Disaster#","Type","County","State","Latitude","Longitude","Damage","Approved","Repair","Population","IncomeCapita","DisasterBegin","DisasterEnd","Duration"
1971,"Severe Storm","Marshall","Alabama",34.367,-86.3066,468614.48,116003.84,101089.45,96137,20382,2011-04-15,2011-05-31,46
4655,"Flood","Park","Montana",45.4884,-110.5267,2901.34,12532.99,11078.99,16513,24611,2022-06-10,2022-07-05,25
4637,"Tornado","Cheatham","Tennessee",36.2612,-87.0868,7753.23,14653.23,6344.23,40539,23459,2021-12-10,2021-12-11,1
4633,"Tornado","Jackson","Arkansas",35.5992,-91.2145,199.5,199.5,0,16908,15609,2021-12-10,2021-12-11,1
4630,"Tornado","Lyon","Kentucky",37.0191,-88.0833,0,0,0,8226,22123,2021-12-10,2021-12-11,1
4618,"Hurricane","Bucks","Pennsylvania",40.337,-75.1069,92390.42,52031.76,42999.73,627668,37466,2021-08-31,2021-09-05,5
4615,"Hurricane","Westchester","New York",41.1624,-73.7561,1111258.75,1028292.94,883744.61,968738,47984,2021-09-01,2021-09-03,2
4614,"Hurricane","Mercer","New Jersey",40.2834,-74.7018,31515.34,31169.55,26938.68,368085,37465,2021-09-01,2021-09-03,2
4626,"Hurricane","Harrison","Mississippi",30.5122,-89.1161,0,0,0,206169,22677,2021-08-28,2021-09-01,4
4617,"Hurricane","Haywood","North Carolina",35.556,-82.9822,0,0,0,61862,24536,2021-08-16,2021-08-18,2
4611,"Hurricane","Iberia","Louisiana",29.8965,-91.7301,1480.97,2258,0,70763,22997,2021-08-26,2021-09-03,8
4610,"Fire","Lassen","California",40.6736,-120.5943,0,0,0,30600,19931,2021-07-14,2021-10-25,103
4634,"Fire","Boulder","Colorado",40.0925,-105.3577,0,0,0,324682,38011,2021-12-30,2022-01-07,8
4606,"Flood","Lafayette","Louisiana",30.2068,-92.0639,59868.23,57398.07,33260.32,243692,28901,2021-05-17,2021-05-21,4
4605,"Flood","Cabell","West Virginia",38.4203,-82.2417,0,0,0,93328,23647,2021-02-27,2021-03-04,5
1981,"Flood","Renville","North Dakota",48.719,-101.6578,582919.88,407487.22,387815.22,2387,31178,2011-02-14,2011-07-20,156
4595,"Flood","Jessamine","Kentucky",37.8721,-84.5809,13350.01,328.1,328.1,53476,25637,2021-02-27,2021-03-14,15
4601,"Tornado","Williamson","Tennessee",35.8938,-86.8987,10322.4,12426.9,8891.39,232380,41292,2021-03-25,2021-04-03,9
4590,"Severe Ice Storm","Catahoula","Louisiana",31.6662,-91.847,6000.72,7216.72,4762.59,9586,19970,2021-02-11,2021-02-19,8
4587,"Severe Ice Storm","Lincoln","Oklahoma",35.703,-96.8809,0,0,0,34936,21888,2021-02-08,2021-02-20,12
4586,"Severe Ice Storm","Hamilton","Texas",31.7048,-98.1107,0,0,0,8434,23067,2021-02-11,2021-02-21,10
4576,"Hurricane","Harrison","Mississippi",30.5122,-89.1161,634154.85,641225.23,459626.31,206169,22677,2020-10-28,2020-10-29,1
4573,"Hurricane","Perry","Alabama",32.6384,-87.2944,18255.39,14656.25,10815.57,9104,13716,2020-10-28,2020-10-29,1
4577,"Hurricane","Lafourche","Louisiana",29.5661,-90.4256,17800.06,22535.57,15819.23,97980,24798,2020-10-26,2020-10-29,3
4570,"Hurricane","Beauregard","Louisiana",30.6486,-93.3432,149894.04,65207.77,50279.44,37387,22509,2020-10-06,2020-10-10,4
4569,"Fire","Madera","California",37.2181,-119.7626,0,0,0,155925,17847,2020-09-04,2020-11-17,74
4564,"Hurricane","Escambia","Florida",30.669,-87.363,0,0,0,316691,23441,2020-09-14,2020-09-28,14
4562,"Fire","Klamath","Oregon",42.6863,-121.6501,0,0,0,67606,21489,2020-09-07,2020-11-03,57
4563,"Hurricane","Baldwin","Alabama",30.7276,-87.7226,2113.52,3957.52,1449.51,218289,26766,2020-09-14,2020-09-16,2
4559,"Hurricane","Cameron","Louisiana",29.8754,-93.1937,0,0,0,6963,29559,2020-08-22,2020-08-27,5
4558,"Fire","Santa Cruz","California",37.0562,-122.0018,485406.98,47669.09,35930.09,273170,32295,2020-08-14,2020-09-26,43
4547,"Dam/Levee Break","Iosco","Michigan",44.3559,-83.6359,26537.63,30394.05,22162.08,25213,22047,2020-05-16,2020-05-22,6
4535,"Biological","Laramie","Wyoming",41.3071,-104.6896,0,5581.5,0,99272,28505,2020-01-20,NA,NA
4534,"Biological","Fremont","Idaho",44.2288,-111.4819,0,0,0,13111,19475,2020-01-20,NA,NA
4548,"Earthquake","Davis","Utah",40.99,-112.1115,0,0,0,350761,26035,2020-03-18,2020-04-17,30
4531,"Biological","Chippewa","Minnesota",45.0223,-95.5667,0,12078.03,0,11876,25993,2020-01-20,NA,NA
4536,"Severe Storm","Panola","Mississippi",34.3639,-89.9506,12501.15,17767.34,6717.34,34079,18073,2020-04-12,2020-04-12,0
1970,"Severe Storm","Atoka","Oklahoma",34.3736,-96.0378,1272.7,0,0,13815,17842,2011-04-14,2011-04-14,0
4519,"Flood","Umatilla","Oregon",45.5919,-118.7369,187.89,13787.89,13787.89,77319,20836,2020-02-05,2020-02-09,4
4483,"Biological","Cerro Gordo","Iowa",43.0816,-93.2608,0,41334.44,0,42672,27291,2020-01-20,NA,NA
4476,"Tornado","Davidson","Tennessee",36.1695,-86.7847,0,0,0,690540,28467,2020-03-03,2020-03-03,0
4482,"Biological","Butte","California",39.6669,-121.6007,0,2683.42,0,223344,23787,2020-01-20,NA,NA
4481,"Biological","Douglas","Washington",47.7361,-119.6918,0,2786.78,0,42520,22467,2020-01-20,NA,NA
4466,"Flood","San Jacinto","Texas",30.5795,-95.1669,0,0,0,28574,24733,2019-09-17,2019-09-23,6
4480,"Biological","Albany","New York",42.6002,-73.9736,0,9000,0,306165,32328,2020-01-20,NA,NA
4673,"Hurricane","Seminole","Florida",28.717,-81.2363,0,700,0,466695,28675,2022-09-23,2022-11-04,42
4454,"Flood","Cameron","Texas",26.1333,-97.5182,7530.49,17123.73,6687.73,422135,14710,2019-06-24,2019-06-25,1
4441,"Flood","Arkansas","Arkansas",34.2892,-91.3742,0,0,0,17761,22170,2019-05-21,2019-06-14,24
4447,"Tornado","Hocking","Ohio",39.497,-82.4792,0,0,0,28306,21037,2019-05-27,2019-05-29,2
4440,"Flood","Dewey","South Dakota",45.1566,-100.8718,1557.28,1457.28,1240.02,5841,15558,2019-03-13,2019-04-26,44
4421,"Flood","Mills","Iowa",41.0334,-95.6213,0,0,0,15023,27101,2019-03-12,2019-06-15,95
1486,"Severe Storm","Columbia","New York",42.2501,-73.6318,729.36,579.28,579.28,60016,33613,2003-07-21,2003-08-13,23
4419,"Tornado","Lee","Alabama",32.6011,-85.3555,0,0,0,163461,23506,2019-03-03,2019-03-03,0
4402,"Flood","Vernon","Wisconsin",43.5939,-90.8344,1215,0,0,30759,22680,2018-08-17,2018-09-14,28
4413,"Earthquake","Anchorage","Alaska",61.1508,-149.1091,77046.7,130435.43,96388.38,292090,36214,2018-11-30,2018-11-30,0
4400,"Hurricane","Decatur","Georgia",30.8783,-84.579,2513.14,813.47,752.7,26595,18059,2018-10-09,2018-10-23,14
4393,"Hurricane","Greene","North Carolina",35.485,-77.6758,702.49,665.87,665.87,20987,18441,2018-09-07,2018-09-29,22
4399,"Hurricane","Calhoun","Florida",30.406,-85.1972,439.94,0,0,14324,14675,2018-10-07,2018-10-19,12
4407,"Fire","Ventura","California",34.4561,-119.0836,0,0,0,845599,32930,2018-11-08,2018-11-25,17
4394,"Hurricane","Horry","South Carolina",33.9214,-78.9966,2782231.69,1965147.59,1253943.14,344186,24002,2018-09-08,2018-10-08,30
4533,"Biological","Kodiak Island","Alaska",57.6807,-153.7972,0,0,0,13383,28562,2020-01-20,NA,NA
4365,"Flood","Kauai","Hawaii",22.0398,-159.5966,10367.12,12807.12,10367.12,71949,26658,2018-04-13,2018-04-16,3
4363,"Flood","Floyd","Indiana",38.3188,-85.907,871.21,871.21,871.21,77879,27185,2018-02-14,2018-03-04,18
4530,"Biological","Choctaw","Oklahoma",34.0266,-95.5522,0,6303,0,14727,17739,2020-01-20,NA,NA
4382,"Fire","Lake","California",39.0996,-122.7532,0,0,0,64276,21537,2018-07-23,2018-09-19,58
4377,"Flood","Jim Wells","Texas",27.7314,-98.0899,3009.49,3519.2,1441.2,40796,20452,2018-06-19,2018-07-13,24
4353,"Fire","Los Angeles","California",34.3209,-118.2247,0,0,0,10040682,27749,2017-12-04,2018-01-31,58
4344,"Fire","Lake","California",39.0996,-122.7532,0,0,0,64276,21537,2017-10-08,2017-10-31,23
4338,"Hurricane","Chatham","Georgia",32.0043,-81.1329,0,0,0,289649,25093,2017-09-07,2017-09-20,13
4337,"Hurricane","Charlotte","Florida",26.9055,-81.9123,1498.5,2378,0,185926,26286,2017-09-04,2017-10-18,44
4332,"Hurricane","Brazoria","Texas",29.1897,-95.4521,38866.41,40424.39,33489.33,368062,29081,2017-08-23,2017-09-15,23
4317,"Flood","Butler","Missouri",36.7164,-90.4066,32972.29,31748.53,24861.47,42570,19246,2017-04-28,2017-05-11,13
4529,"Biological","Bernalillo","New Mexico",35.0514,-106.6702,0,0,0,679037,26814,2020-01-20,NA,NA
4528,"Biological","Benton","Mississippi",34.8173,-89.1885,0,0,0,8275,18597,2020-01-20,NA,NA
4527,"Biological","Lincoln","South Dakota",43.2789,-96.7218,0,18000,0,58887,34839,2020-01-20,NA,NA
4297,"Tornado","Thomas","Georgia",30.8637,-83.9193,26.24,0,0,44545,19983,2017-01-21,2017-01-22,1
4295,"Tornado","Perry","Mississippi",31.172,-88.9923,179.64,0,0,11981,17183,2017-01-20,2017-01-21,1
4290,"Flood","Le Sueur","Minnesota",44.3714,-93.7301,1625.31,393.88,393.88,28425,27793,2016-09-21,2016-09-24,3
4286,"Hurricane","Dorchester","South Carolina",33.0793,-80.4067,3735.82,5505.36,2660.58,161309,24495,2016-10-04,2016-10-30,26
4285,"Hurricane","Anson","North Carolina",34.9738,-80.1027,6950.35,5193.1,3399.1,24430,16752,2016-10-04,2016-10-24,20
4291,"Hurricane","Suffolk","Virginia",36.6953,-76.6398,77636.16,44567.67,38377.01,91383,NA,2016-10-07,2016-10-15,8
4293,"Fire","Sevier","Tennessee",35.7846,-83.5242,0,0,0,98007,22242,2016-11-28,2016-12-09,11
4283,"Hurricane","Flagler","Florida",29.4614,-81.3136,0,0,0,112854,24497,2016-10-03,2016-10-19,16
4284,"Hurricane","McIntosh","Georgia",31.4963,-81.4103,15413.68,14963.08,14963.08,14217,21484,2016-10-04,2016-10-15,11
4277,"Flood","St. Tammany","Louisiana",30.4102,-89.9583,10550.46,15432.41,4631.6,258447,30363,2016-08-11,2016-08-31,20
4280,"Hurricane","Hillsborough","Florida",27.9292,-82.3092,12008.74,0,0,1451358,27149,2016-08-31,2016-09-11,11
4273,"Flood","Greenbrier","West Virginia",37.947,-80.453,625390.09,461442.09,345922.51,34893,21720,2016-06-22,2016-06-29,7
4300,"Tornado","Orleans","Louisiana",30.0687,-89.9288,0,0,0,391249,26500,2017-02-07,2017-02-07,0
4272,"Flood","Brazos","Texas",30.6608,-96.3024,93015.72,55928.86,38675.12,226370,21720,2016-05-22,2016-06-24,33
4269,"Flood","Fort Bend","Texas",29.5275,-95.7709,10070.05,12259.64,8959.64,790892,34084,2016-04-17,2016-04-30,13
4268,"Flood","Perry","Mississippi",31.172,-88.9923,795302.16,565701.74,415762.38,11981,17183,2016-03-09,2016-03-29,20
4266,"Flood","Marion","Texas",32.798,-94.3571,22896.61,0,0,9987,20337,2016-03-07,2016-03-29,22
4263,"Flood","Ascension","Louisiana",30.2036,-90.9113,0,0,0,125061,28178,2016-03-08,2016-04-08,31
4250,"Flood","Wright","Missouri",37.2702,-92.4687,296.84,0,0,18256,14752,2015-12-23,2016-01-09,17
4526,"Biological","Kent","Delaware",39.086,-75.5686,0,9000,0,179124,24851,2020-01-20,NA,NA
4525,"Biological","Millard","Utah",39.0733,-113.1006,0,0,0,12963,19972,2020-01-20,NA,NA
4524,"Biological","Gila","Arizona",33.7997,-110.8116,0,3132.91,0,53846,20792,2020-01-20,NA,NA
4523,"Biological","Clark","Nevada",36.2152,-115.0135,0,9000,0,2228866,26217,2020-01-20,NA,NA
4241,"Flood","Calhoun","South Carolina",33.6749,-80.7803,0,0,0,14608,23023,2015-10-01,2015-10-23,22
4522,"Biological","Franklin","Maine",44.9741,-70.4441,0,4708.08,0,29933,22083,2020-01-20,NA,NA
4240,"Fire","Calaveras","California",38.2046,-120.5541,204426.38,32900,31490,45828,29329,2015-09-09,2015-10-30,51
4193,"Earthquake","Napa","California",38.5065,-122.3305,461648.49,415183.67,351079.93,138572,34795,2014-08-24,2014-09-07,14
4227,"Flood","Niobrara","Wyoming",43.0565,-104.4754,1151.04,0,0,2377,26797,2015-05-24,2015-06-06,13
4521,"Biological","Antelope","Nebraska",42.1769,-98.0667,0,9000,0,6315,25186,2020-01-20,NA,NA
4520,"Biological","Bayfield","Wisconsin",46.5237,-91.2009,0,0,0,15088,25377,2020-01-20,NA,NA
4518,"Biological","Bradley","Arkansas",33.4664,-92.1624,0,9000,0,10805,19386,2020-01-20,NA,NA
4217,"Flood","Franklin","Kentucky",38.2392,-84.8771,110141.9,79976.85,48694.6,50744,26243,2015-04-02,2015-04-17,15
4517,"Biological","Boone","West Virginia",38.023,-81.7112,0,13670.57,0,21897,21627,2020-01-20,NA,NA
4532,"Biological","Rutland","Vermont",43.5802,-73.0366,0,6326.69,0,58527,26205,2020-01-20,NA,NA
4195,"Flood","Oakland","Michigan",42.6604,-83.3858,10454.03,6594.11,5674.15,1255340,36458,2014-08-11,2014-08-13,2
4516,"Biological","Merrimack","New Hampshire",43.2975,-71.6802,0,5657.6,0,150902,31310,2020-01-20,NA,NA
4515,"Biological","Dearborn","Indiana",39.1452,-84.9732,0,1295,0,49612,27058,2020-01-20,NA,NA
4514,"Biological","Bedford","Tennessee",35.5138,-86.4589,0,9000,0,48937,19303,2020-01-20,NA,NA
4157,"Tornado","Vermilion","Illinois",40.1834,-87.7328,989.16,0,0,76704,21225,2013-11-17,2013-11-17,0
4177,"Severe Storm","Walton","Florida",30.6436,-86.1696,1188.21,1188.21,1188.21,71049,25845,2014-04-28,2014-05-06,8
4175,"Severe Storm","Rankin","Mississippi",32.2641,-89.9458,24726.03,12222.72,5676.72,154119,26897,2014-04-28,2014-05-03,5
4145,"Flood","Adams","Colorado",39.8737,-104.3379,1859.46,1859.46,1859.46,509844,24195,2013-09-11,2013-09-30,19
4509,"Biological","Cass","North Dakota",46.933,-97.248,0,16831.01,0,179937,30529,2020-01-20,NA,NA
4508,"Biological","Lewis and Clark","Montana",47.1224,-112.3905,0,23023.3,0,68714,28400,2020-01-20,NA,NA
4510,"Biological","Maui","Hawaii",20.8596,-156.5649,0,1737.23,0,166657,29517,2020-01-20,NA,NA
4117,"Tornado","Le Flore","Oklahoma",34.9003,-94.7034,135.25,0,0,49999,18141,2013-05-18,2013-06-02,15
4507,"Biological","Carroll","Ohio",40.5796,-81.0897,0,26738.07,0,27195,21783,2020-01-20,NA,NA
4116,"Flood","Bureau","Illinois",41.4041,-89.5286,721.63,0,0,32878,26705,2013-04-16,2013-05-05,19
4506,"Biological","Bucks","Pennsylvania",40.337,-75.1069,0,14685,0,627668,37466,2020-01-20,NA,NA
4089,"Hurricane","Newport","Rhode Island",41.5566,-71.2365,31556.53,21766.9,21766.9,82731,40293,2012-10-26,2012-10-31,5
4086,"Hurricane","Hudson","New Jersey",40.7371,-74.0779,0,0,0,671923,32641,2012-10-26,2012-11-08,13
4085,"Hurricane","Bronx","New York",40.85,-73.8661,227.48,0,0,1427056,18171,2012-10-27,2012-11-08,12
4081,"Hurricane","Franklin","Mississippi",31.4772,-90.8979,7470.93,15225.37,3733.37,7716,24234,2012-08-26,2012-09-11,16
4505,"Biological","Newport","Rhode Island",41.5566,-71.2365,0,9000,0,82731,40293,2020-01-20,NA,NA
4087,"Hurricane","Fairfield","Connecticut",41.2711,-73.3893,31315.85,15495.47,11822.93,944306,48721,2012-10-27,2012-11-08,12
4504,"Biological","Doniphan","Kansas",39.7881,-95.1468,0,9000,0,7616,22713,2020-01-20,NA,NA
4080,"Hurricane","Iberville","Louisiana",30.2586,-91.3495,31370.05,44468.21,17543.46,32626,21177,2012-08-26,2012-09-10,15
4078,"Fire","Cleveland","Oklahoma",35.2031,-97.3265,0,0,0,282189,26920,2012-08-03,2012-08-14,11
4091,"Hurricane","Somerset","Maryland",38.1158,-75.7518,112457.16,48698.56,37955.75,25699,16748,2012-10-26,2012-11-04,9
4503,"Biological","Blount","Alabama",33.9809,-86.5674,0,19149.6,0,57755,20730,2020-01-20,NA,NA
4501,"Biological","Atkinson","Georgia",31.2971,-82.8801,0,7475.2,0,8311,15958,2020-01-20,NA,NA
4502,"Biological","District of Columbia","District of Columbia",38.9047,-77.0163,0,7557.89,0,701974,NA,2020-01-20,NA,NA
4500,"Biological","New London","Connecticut",41.4867,-72.1014,0,4065,0,266868,33782,2020-01-20,NA,NA
4499,"Biological","Sherman","Oregon",45.4052,-120.6894,0,6251,0,1686,24314,2020-01-20,NA,NA
4498,"Biological","Otero","Colorado",37.9026,-103.7164,0,7017,0,18284,19078,2020-01-20,NA,NA
4497,"Biological","Adair","Kentucky",37.1041,-85.2807,0,2250,0,19366,17371,2020-01-20,NA,NA
4042,"Earthquake","Fluvanna","Virginia",37.8419,-78.2772,553988.89,512389.83,500957.83,26873,30881,2011-08-23,2011-10-25,63
4030,"Flood","York","Pennsylvania",39.92,-76.7265,4041.19,4041.19,4041.19,447628,28132,2011-09-03,2011-10-15,42
4068,"Severe Storm","Clay","Florida",29.9831,-81.8579,3658.31,6758.31,3658.31,215294,26577,2012-06-23,2012-07-26,33
4028,"Hurricane","Franklin","Massachusetts",42.5831,-72.5918,288.25,288.25,288.25,70529,29259,2011-08-27,2011-08-29,2
4061,"Severe Storm","Mingo","West Virginia",37.7265,-82.1347,1959.97,1959.97,1959.97,23808,20609,2012-03-15,2012-03-31,16
4023,"Hurricane","Windham","Connecticut",41.83,-71.9874,10607.33,9643.56,9254.56,116657,27893,2011-08-27,2011-09-01,5
4022,"Hurricane","Washington","Vermont",44.2734,-72.6148,0,0,0,58336,NA,2011-08-27,2011-09-02,6
4021,"Hurricane","Hudson","New Jersey",40.7371,-74.0779,86237.02,62239.51,52339.38,671923,32641,2011-08-27,2011-09-05,9
4059,"Severe Storm","Marion","West Virginia",39.51,-80.2434,4411.26,5037.11,4111.11,56233,23229,2012-02-29,2012-03-05,5
4057,"Severe Storm","Grant","Kentucky",38.6488,-84.6246,2503.56,1595.44,1595.44,25107,19829,2012-02-29,2012-03-03,3
4026,"Hurricane","Carroll","New Hampshire",43.8738,-71.2031,938.19,30200,28856,48461,31558,2011-08-26,2011-09-06,11
4025,"Hurricane","Wyoming","Pennsylvania",41.5183,-76.0166,313.22,0,0,27078,NA,2011-08-26,2011-08-30,4
4020,"Hurricane","Herkimer","New York",43.4197,-74.9625,13675.78,16549.9,14511.92,61738,23418,2011-08-26,2011-09-05,10
4019,"Hurricane","Chowan","North Carolina",36.1508,-76.6079,23240.58,16955.56,7207.06,13995,19240,2011-08-25,2011-09-01,7
4012,"Flood","Platte","Missouri",39.3803,-94.7738,0,0,0,102848,35143,2011-06-01,2011-08-01,61
4013,"Flood","Dixon","Nebraska",42.4931,-96.8677,18993.3,24003.3,18893.3,5682,23769,2011-05-24,2011-08-01,69
4494,"Biological","Huron","Michigan",43.8333,-83.019,0,2995,0,31105,22120,2020-01-20,NA,NA
4001,"Severe Storm","Washington","Vermont",44.2734,-72.6148,0,0,0,58336,NA,2011-05-26,2011-05-27,1
4496,"Biological","Berkshire","Massachusetts",42.3707,-73.2064,0,19035,0,125927,29294,2020-01-20,NA,NA
3560,"Other","Miami-Dade","Florida",25.6149,-80.5623,932554.35,205921.02,108000,2705528,23174,2021-06-24,2021-07-04,10
4492,"Biological","Colleton","South Carolina",32.8636,-80.6669,0,22387.3,0,37624,18769,2020-01-20,NA,NA
4490,"Biological","Daviess","Missouri",39.9608,-93.9855,0,9000,0,8294,19890,2020-01-20,NA,NA
3363,"Other","McLennan","Texas",31.5524,-97.2018,0,0,0,254045,21660,2013-04-17,2013-04-20,3
4491,"Biological","Baltimore","Maryland",39.4627,-76.6393,0,9000,0,828193,NA,2020-01-20,NA,NA
4491,"Biological","Baltimore","Maryland",39.3051,-76.6144,0,9000,0,602274,NA,2020-01-20,NA,NA
4489,"Biological","Fulton","Illinois",40.4728,-90.2075,0,9000,0,34654,22318,2020-01-20,NA,NA
4487,"Biological","Anson","North Carolina",34.9738,-80.1027,0,10612.34,0,24430,16752,2020-01-20,NA,NA
4486,"Biological","DeSoto","Florida",27.1863,-81.8095,0,0,0,37371,15088,2020-01-20,NA,NA
4488,"Biological","Atlantic","New Jersey",39.4777,-74.661,0,6411.02,0,264650,27391,2020-01-20,NA,NA
4485,"Biological","Andrews","Texas",32.305,-102.6378,0,18000,0,18227,27429,2020-01-20,NA,NA
4484,"Biological","Jefferson","Louisiana",29.7872,-90.1274,0,3021.02,0,434903,26908,2020-01-20,NA,NA
4512,"Biological","Amelia","Virginia",37.336,-77.9761,0,13750.22,0,12970,25100,2020-01-20,NA,NA
1603,"Hurricane","Iberia","Louisiana",29.8965,-91.7301,384865.41,370168.16,148616.67,70763,22997,2005-08-29,2005-11-01,64
1595,"Hurricane","Santa Rosa","Florida",30.7004,-87.0219,139536.84,49743.45,20685.14,179587,26861,2005-07-07,2005-07-20,13
1604,"Hurricane","Warren","Mississippi",32.3572,-90.852,842.88,2372.08,2372.08,46030,22362,2005-08-29,2005-10-14,46
1599,"Tornado","Campbell","Wyoming",44.2483,-105.5483,0,0,0,46958,33850,2005-08-12,2005-08-12,0
1593,"Hurricane","Washington","Alabama",31.4076,-88.2079,0,0,0,16336,NA,2005-07-10,2005-07-16,6
1980,"Severe Storm","Carter","Missouri",36.9412,-90.9623,73762.98,79386.25,65207.08,6085,18245,2011-04-19,2011-06-06,48
1763,"Severe Storm","Adams","Iowa",41.029,-94.6992,4496.28,4486.53,4286.54,3633,23707,2008-05-25,2008-08-13,80
4677,"Hurricane","Charleston","South Carolina",32.8346,-79.9531,18486.22,13628.28,9072.07,407543,30158,2022-09-25,2022-10-04,9
4680,"Hurricane","Volusia","Florida",29.0583,-81.1819,98259.03,46554.05,27800.05,546107,23973,2022-11-07,2022-11-30,23
4029,"Fire","Anderson","Texas",31.8133,-95.6525,139185.85,30200,28442,57917,18495,2011-08-30,2011-12-31,123
1991,"Severe Storm","Massac","Illinois",37.2189,-88.7076,60806.87,37006.34,29770.84,14041,22047,2011-04-19,2011-06-14,56
1998,"Flood","Monona","Iowa",42.0517,-95.9599,71102.9,66146.47,62866.47,8675,24557,2011-05-25,2011-08-01,68
4683,"Flood","Merced","California",37.1919,-120.7177,0,0,0,273661,18177,2022-12-27,NA,NA
4684,"Severe Storm","Coosa","Alabama",32.9362,-86.2477,37711.48,14845.33,9465.7,10696,18493,2023-01-12,2023-01-12,0
1897,"Severe Storm","Burlington","New Jersey",39.8777,-74.6681,375.48,0,0,446301,36835,2010-03-12,2010-04-15,34
4685,"Severe Storm","Butts","Georgia",33.2879,-83.9572,0,0,0,24463,20363,2023-01-12,2023-01-12,0
1994,"Tornado","Hampden","Massachusetts",42.1351,-72.6316,0,0,0,466647,25817,2011-06-01,2011-06-01,0
1711,"Severe Storm","Coffey","Kansas",38.2369,-95.7341,4974.84,4974.84,4974.84,8218,27627,2007-06-26,2007-07-25,29
1694,"Severe Storm","Essex","New Jersey",40.7872,-74.2471,95032.96,99325.75,86925.49,798698,32181,2007-04-14,2007-04-20,6
1692,"Severe Storm","Ulster","New York",41.8881,-74.2586,927.87,1599.87,927.87,178371,30442,2007-04-14,2007-04-18,4
1589,"Severe Storm","Orange","New York",41.4021,-74.3056,12215.13,12822.37,12283.26,382077,30583,2005-04-02,2005-04-04,2
1670,"Severe Storm","Chenango","New York",42.4935,-75.6116,5713.22,8300.27,7950.33,47527,22097,2006-11-16,2006-11-17,1
1983,"Flood","Adams","Mississippi",31.4829,-91.3535,130819.03,96069.92,69315.11,31103,17544,2011-05-03,2011-06-17,45
1996,"Severe Storm","Big Horn","Montana",45.4234,-107.4897,5258.62,5258.62,5258.62,13302,15695,2011-04-04,2011-07-22,109
1984,"Flood","Hughes","South Dakota",44.389,-99.996,847430.77,875831.05,706822.36,17560,30284,2011-03-11,2011-07-22,133
1995,"Severe Storm","Lamoille","Vermont",44.607,-72.6418,2700.48,2700.48,2700.48,25376,27157,2011-04-23,2011-05-09,16
1989,"Severe Storm","Caddo","Oklahoma",35.1744,-98.3752,197.26,0,0,29179,17858,2011-05-22,2011-05-25,3
1975,"Severe Storm","Saline","Arkansas",34.6467,-92.6766,0,0,0,120990,25962,2011-04-14,2011-06-03,50
1972,"Severe Storm","Monroe","Mississippi",33.8923,-88.4805,10040,24841.86,7500.28,35559,18167,2011-04-15,2011-04-28,13
1931,"Hurricane","Cameron","Texas",26.1333,-97.5182,35338.42,31028.9,28136.95,422135,14710,2010-06-30,2010-08-14,45
1918,"Flood","Wyoming","West Virginia",37.6096,-81.5492,1442552.49,757093.91,660194.13,20890,NA,2010-06-12,2010-06-29,17
1906,"Severe Storm","Holmes","Mississippi",33.1235,-90.092,37001.76,35324.97,28183.5,17414,12113,2010-04-23,2010-04-24,1
1846,"Fire","Lincoln","Oklahoma",35.703,-96.8809,198944.17,122110,118430,34936,21888,2009-04-09,2009-04-12,3
1834,"Tornado","Ashley","Arkansas",33.1912,-91.7685,616.05,0,0,20000,19761,2009-04-09,2009-04-09,0
1817,"Flood","Grays Harbor","Washington",47.1502,-123.7736,0,0,0,73769,21828,2009-01-06,2009-01-16,10
1814,"Flood","Honolulu","Hawaii",21.5008,-158.1053,0,0,0,979682,30361,2008-12-10,2008-12-16,6
1810,"Fire","Riverside","California",33.7437,-115.9938,119853.8,3166,0,2437864,23591,2008-11-13,2008-11-28,15
1792,"Hurricane","Beauregard","Louisiana",30.6486,-93.3432,632.8,632.8,632.8,37387,22509,2008-09-11,2008-11-07,57
1791,"Hurricane","Grimes","Texas",30.5435,-95.9855,35875.69,20495.95,16221.98,28447,20307,2008-09-07,2008-10-02,25
1794,"Hurricane","Wilkinson","Mississippi",31.1611,-91.3109,203944.41,159199.29,104509.05,8727,18717,2008-08-28,2008-09-08,11
1786,"Hurricane","East Feliciana","Louisiana",30.8451,-91.0455,330292.39,195828.04,132547.35,19228,22099,2008-09-01,2008-09-11,10
1780,"Hurricane","Willacy","Texas",26.4693,-97.6622,1886.41,688.65,688.65,21419,11313,2008-07-22,2008-08-01,10
1785,"Severe Storm","Hendry","Florida",26.5535,-81.1659,30701.56,23596.67,20402.7,41472,16133,2008-08-18,2008-09-12,25
1755,"Flood","Penobscot","Maine",45.4006,-68.6495,0,0,0,151696,23895,2008-04-28,2008-05-14,16
1731,"Fire","Riverside","California",33.7437,-115.9938,0,0,0,2437864,23591,2007-10-21,2008-03-31,162
1668,"Severe Storm","Winn","Louisiana",31.9442,-92.6369,57019.73,58049.29,53279.29,14165,16789,2006-10-16,2006-11-08,23
1664,"Earthquake","Hawaii","Hawaii",19.5985,-155.5185,14575.92,14575.92,14575.92,201350,29305,2006-10-15,2007-01-15,92
1624,"Fire","Cooke","Texas",33.6393,-97.2126,0,0,0,40428,25186,2005-11-27,2006-05-14,168
1623,"Fire","Logan","Oklahoma",35.9193,-97.4433,364133,49675.36,33732.5,47401,25620,2005-11-27,2006-03-31,124
1607,"Hurricane","Evangeline","Louisiana",30.7289,-92.4059,112.68,0,0,33491,18023,2005-09-23,2005-11-01,39
1612,"Tornado","Vanderburgh","Indiana",38.0249,-87.5859,9266.91,4973.91,3493.41,181548,24378,2005-11-06,2005-11-06,0
1609,"Hurricane","Collier","Florida",26.1107,-81.3475,1049.58,0,0,379345,36439,2005-10-23,2005-11-18,26
1606,"Hurricane","Blanco","Texas",30.2664,-98.3999,0,2000,0,11733,26781,2005-09-23,2005-10-14,21
1605,"Hurricane","Sumter","Alabama",32.5911,-88.1988,29541.59,48191.27,19401.66,12595,14156,2005-08-29,2005-09-26,28
1566,"Hurricane","Fairfield","South Carolina",34.3951,-81.1212,0,0,0,22406,20257,2004-09-06,2004-10-11,35
1561,"Hurricane","Brevard","Florida",28.2936,-80.7323,7202735.89,872948.61,290871.18,594001,27009,2004-09-24,2004-11-17,54
1557,"Hurricane","Allegheny","Pennsylvania",40.4688,-79.9812,142892.92,62621.94,38378,1218380,31593,2004-09-17,2004-10-01,14
1554,"Hurricane","Miller","Georgia",31.164,-84.7308,26598.06,19430.62,13244.31,5725,19674,2004-09-14,2004-10-30,46
1553,"Hurricane","Alleghany","North Carolina",36.4916,-81.127,1275,0,0,11085,19510,2004-09-16,2004-09-23,7
1551,"Hurricane","Lake","Florida",28.7615,-81.7113,1891.64,1891.64,0,356115,24183,2004-09-13,2004-11-17,65
1550,"Hurricane","Jackson","Mississippi",30.5423,-88.6357,473131.35,401242.6,228583.65,142872,23879,2004-09-13,2004-09-20,7
1549,"Hurricane","Clay","Alabama",33.2691,-85.8605,3304.83,3304.83,3304.83,13285,18694,2004-09-13,2004-09-30,17
1546,"Hurricane","Alleghany","North Carolina",36.4916,-81.127,7318.66,8268.66,5698.05,11085,19510,2004-09-07,2004-09-12,5
1548,"Hurricane","Orleans","Louisiana",30.0687,-89.9288,19290.12,18727.39,9738.28,391249,26500,2004-09-13,2004-09-26,13
1545,"Hurricane","Dixie","Florida",29.6082,-83.1588,2198.16,2148.16,2148.16,16740,16851,2004-09-03,2004-10-08,35
1539,"Hurricane","Charlotte","Florida",26.9055,-81.9123,519.31,0,0,185926,26286,2004-08-11,2004-08-30,19
1512,"Flood","Norfolk","Massachusetts",42.1605,-71.2114,4869.1,3493.5,3265.5,703740,44692,2004-04-01,2004-04-30,29
1505,"Earthquake","San Luis Obispo","California",35.3871,-120.4044,4891434.56,3715494.66,3393723.84,282517,29954,2003-12-22,2004-02-06,46
1498,"Fire","Los Angeles","California",34.3209,-118.2247,0,0,0,10040682,27749,2003-10-21,2004-03-31,162
1494,"Hurricane","New Castle","Delaware",39.5768,-75.6527,4607.41,10137.98,0,558306,32406,2003-09-18,2003-09-29,11
1492,"Hurricane","Montgomery","Maryland",39.1363,-77.2042,49705.74,43866.78,21758.8,1047661,49038,2003-09-18,2003-09-29,11
1491,"Hurricane","Arlington","Virginia",38.8786,-77.1011,370.56,256.07,256.07,236434,62018,2003-09-18,2003-10-01,13
1490,"Hurricane","Camden","North Carolina",36.3877,-76.2064,60666.78,48856.11,24168.05,10654,25620,2003-09-18,2003-09-26,8
1493,"Hurricane","District of Columbia","District of Columbia",38.9047,-77.0163,55192.82,37099.98,29037.63,701974,NA,2003-09-18,2003-09-29,11
1495,"Hurricane","New Castle","Delaware",39.5768,-75.6527,0,1756.2,1756.2,558306,32406,2003-09-15,2003-09-15,0
1479,"Hurricane","Frio","Texas",28.8678,-99.1082,91896.71,85407.28,48520.9,20013,15863,2003-07-15,2003-07-28,13
1484,"Tornado","Portage","Ohio",41.1677,-81.1974,9900.92,7533.71,4947.33,162476,25332,2003-07-21,2003-08-25,35
1467,"Severe Ice Storm","Cayuga","New York",42.9175,-76.5545,2157.54,2399.58,1619.46,76958,24702,2003-04-03,2003-04-05,2
1440,"Earthquake","Fairbanks North Star","Alaska",64.8078,-146.5654,4201.92,4201.92,4201.92,98455,32143,2002-11-03,2002-11-10,7
4652,"Fire","Colfax","New Mexico",36.6061,-104.6468,0,0,0,12106,21387,2022-04-05,2022-07-23,109
4665,"Flood","St. Louis","Missouri",38.6407,-90.4434,0,0,0,996179,NA,2022-07-25,2022-07-28,3
4665,"Flood","St. Louis","Missouri",38.6359,-90.2451,0,0,0,304709,NA,2022-07-25,2022-07-28,3
4663,"Flood","Knott","Kentucky",37.354,-82.9541,551462.72,416598.88,339872.9,15041,18448,2022-07-26,2022-08-11,16
1974,"Severe Storm","Montgomery","Tennessee",36.4969,-87.3829,2489.4,1800.06,0,204992,22380,2011-04-25,2011-04-28,3
1942,"Severe Storm","Craven","North Carolina",35.1249,-77.0939,20756.69,21960.37,16827.58,102290,24260,2010-09-27,2010-10-01,4
1935,"Severe Storm","DuPage","Illinois",41.852,-88.0856,6395.82,6395.82,6395.82,926005,38570,2010-07-19,2010-08-07,19
4657,"Severe Storm","Muskogee","Oklahoma",35.6161,-95.3795,0,0,0,68451,19868,2022-05-02,2022-05-08,6
4609,"Flood","Dickson","Tennessee",36.149,-87.3567,0,0,0,53289,21547,2021-08-21,2021-08-21,0
1973,"Severe Storm","Lumpkin","Georgia",34.5722,-84.0027,57.3,57.3,57.3,33009,20908,2011-04-27,2011-04-28,1
1969,"Severe Storm","Bertie","North Carolina",36.0662,-76.9787,0,0,0,19081,17096,2011-04-16,2011-04-16,0
1933,"Severe Storm","Grant","Wisconsin",42.8675,-90.7062,32827.4,40719.23,37666.76,51570,21705,2010-07-20,2010-07-24,4
1930,"Severe Storm","Kossuth","Iowa",43.2041,-94.2067,0,0,0,14864,29127,2010-06-01,2010-08-31,91
1925,"Severe Storm","Carter","Kentucky",38.3182,-83.0495,8235.84,9419.72,8205.72,26976,19204,2010-07-17,2010-07-30,13
1917,"Severe Storm","Cleveland","Oklahoma",35.2031,-97.3265,0,0,0,282189,26920,2010-05-10,2010-05-13,3
4326,"Severe Storm","Bay","Michigan",43.7074,-83.9921,86223.2,76365.2,64861.74,103506,23799,2017-06-22,2017-06-27,5
1912,"Severe Storm","Adair","Kentucky",37.1041,-85.2807,5880.24,5880.24,5880.24,19366,17371,2010-05-01,2010-06-01,31
1909,"Severe Storm","Carroll","Tennessee",35.9732,-88.4502,5519.59,9785.74,2383.07,27841,18330,2010-04-30,2010-05-18,18
4676,"Flood","St. Clair","Illinois",38.4703,-89.9284,137998.54,132975.22,88370.12,261186,26234,2022-07-25,2022-07-28,3
1916,"Severe Storm","Alcorn","Mississippi",34.8808,-88.5803,7443.76,7789.24,6158.75,37058,19145,2010-05-01,2010-05-02,1
1908,"Severe Storm","DeKalb","Alabama",34.4598,-85.8041,90.44,0,0,71430,18149,2010-04-24,2010-04-25,1
1895,"Severe Storm","Worcester","Massachusetts",42.3514,-71.9077,11966.42,8927.27,8927.27,826655,31537,2010-03-12,2010-04-26,45
1894,"Severe Storm","Bristol","Rhode Island",41.7173,-71.284,0,0,0,48645,38893,2010-03-12,2010-04-12,31
1893,"Severe Storm","Raleigh","West Virginia",37.7714,-81.2487,4764.57,4764.57,4764.57,74452,21837,2010-03-12,2010-04-09,28
1904,"Severe Storm","Fairfield","Connecticut",41.2711,-73.3893,48574.34,21985.52,15883.54,944306,48721,2010-03-12,2010-05-17,66
4607,"Severe Storm","Washtenaw","Michigan",42.2532,-83.8388,24599.84,25726.57,10944.71,368385,33231,2021-06-25,2021-06-26,1
4632,"Severe Storm","Shelby","Alabama",33.2643,-86.6607,0,0,0,216350,33313,2021-10-06,2021-10-07,1
4596,"Severe Storm","Calhoun","Alabama",33.7714,-85.826,138215.03,72735.65,51459.15,114324,20828,2021-03-25,2021-03-26,1
4557,"Severe Storm","Cedar","Iowa",41.7723,-91.1324,15555.8,175.88,175.88,18475,26567,2020-08-10,2020-08-10,0
4542,"Severe Storm","Hampton","South Carolina",32.7763,-81.1407,31915.43,66328.1,42821.34,19223,19332,2020-04-12,2020-04-13,1
4541,"Severe Storm","Hamilton","Tennessee",35.1808,-85.1648,15228.52,16904.52,15228.52,364718,27229,2020-04-12,2020-04-13,1
4469,"Severe Storm","Lake","South Dakota",44.022,-97.1294,2255.36,1955.36,1955.36,12747,27015,2019-09-09,2019-09-26,17
4451,"Severe Storm","Greene","Missouri",37.258,-93.342,1070,903.68,903.68,291574,23520,2019-04-29,2019-07-05,67
4438,"Severe Storm","Ottawa","Oklahoma",36.8355,-94.8104,1348.9,2235.3,2235.3,31283,18331,2019-05-07,2019-06-09,33
4429,"Severe Storm","Clay","Mississippi",33.6557,-88.7816,0,0,0,19515,18273,2019-02-22,2019-08-23,182
4366,"Volcanic Eruption","Hawaii","Hawaii",19.5985,-155.5185,90956552.71,10854341.49,7422123.96,201350,29305,2018-05-03,2018-08-17,106
4364,"Severe Storm","Guilford","North Carolina",36.0795,-79.7889,0,0,0,532956,26461,2018-04-15,2018-04-15,0
4362,"Severe Storm","Calhoun","Alabama",33.7714,-85.826,120.8,0,0,114324,20828,2018-03-19,2018-03-20,1
4331,"Severe Storm","Marshall","West Virginia",39.8606,-80.6634,1013.54,1013.54,1013.54,30900,24329,2017-07-28,2017-07-29,1
4318,"Severe Storm","Pulaski","Arkansas",34.77,-92.312,84467.57,32678.21,29454.22,393078,27414,2017-04-26,2017-05-19,23
4294,"Severe Storm","Dougherty","Georgia",31.5334,-84.2163,0,0,0,88696,18619,2017-01-02,2017-01-02,0
4254,"Severe Storm","Jackson","Arkansas",35.5992,-91.2145,40053.39,0,0,16908,15609,2015-12-26,2016-01-22,27
4248,"Severe Storm","Coahoma","Mississippi",34.23,-90.6017,7472.95,4547.1,4547.1,22685,15742,2015-12-23,2015-12-28,5
4245,"Severe Storm","Willacy","Texas",26.4693,-97.6622,364,0,0,21419,11313,2015-10-22,2015-10-31,9
4239,"Severe Storm","Fleming","Kentucky",38.3701,-83.6966,8755.91,0,0,14519,19304,2015-07-11,2015-07-20,9
4226,"Severe Storm","Miller","Arkansas",33.3124,-93.8921,74363.61,60037.65,53965.33,43515,20636,2015-05-07,2015-06-15,39
4223,"Severe Storm","Cooke","Texas",33.6393,-97.2126,0,0,0,40428,25186,2015-05-04,2015-06-22,49
4222,"Severe Storm","Pittsburg","Oklahoma",34.9239,-95.7484,9946.4,8654,7100.01,43955,21966,2015-05-05,2015-06-22,48
4176,"Severe Storm","Baldwin","Alabama",30.7276,-87.7226,420304.91,129500.71,87542.51,218289,26766,2014-04-28,2014-05-05,7
4174,"Severe Storm","White","Arkansas",35.2563,-91.7456,243975.24,91337.45,87645.46,78725,21793,2014-04-27,2014-04-27,0
4101,"Severe Storm","Forrest","Mississippi",31.1889,-89.2579,0,0,0,75162,19736,2013-02-10,2013-02-22,12
4071,"Severe Storm","Greenbrier","West Virginia",37.947,-80.453,556.08,777.96,0,34893,21720,2012-06-29,2012-07-08,9
4060,"Severe Storm","McMinn","Tennessee",35.4247,-84.6175,1278.24,280.88,280.88,53392,19744,2012-02-29,2012-03-02,2
4031,"Severe Storm","Herkimer","New York",43.4197,-74.9625,21.12,0,0,61738,23418,2011-09-07,2011-09-11,4
4052,"Severe Storm","Chilton","Alabama",32.8479,-86.7188,46878.17,12858.47,0,44147,20701,2012-01-22,2012-01-23,1
4058,"Severe Storm","Jefferson","Indiana",38.7858,-85.4386,197897.04,23099.36,12099.36,32167,21524,2012-02-29,2012-03-03,3
4008,"Severe Storm","Bell","Kentucky",36.7306,-83.6741,1995736.79,1555450.12,1303534.77,26426,15091,2011-06-19,2011-06-23,4
4000,"Severe Storm","Johnson","Arkansas",35.5697,-93.4601,44812.48,33450.48,19133.8,26475,19366,2011-05-24,2011-05-26,2
1979,"Severe Storm","Lincoln","Tennessee",35.1405,-86.589,1424.19,0,0,34158,21811,2011-04-19,2011-06-07,49
1976,"Severe Storm","Ballard","Kentucky",37.0585,-88.9994,6766.58,1632,0,7914,24781,2011-04-12,2011-05-20,38
1858,"Severe Storm","Catoosa","Georgia",34.9036,-85.1382,2104.02,2960.16,1824.16,67181,21690,2009-09-18,2009-10-08,20
1847,"Severe Storm","Barry","Missouri",36.7099,-93.8291,1847.07,0,0,35615,19489,2009-05-08,2009-05-16,8
1857,"Severe Storm","Cattaraugus","New York",42.2486,-78.6788,0,0,0,76750,22049,2009-08-08,2009-08-10,2
1855,"Severe Storm","Jefferson","Kentucky",38.1872,-85.6591,0,0,0,768419,27925,2009-08-04,2009-08-04,0
1841,"Severe Storm","Magoffin","Kentucky",37.7065,-83.0649,0,0,0,12346,15118,2009-05-03,2009-05-20,17
1838,"Severe Storm","Calhoun","West Virginia",38.8445,-81.1176,27806.61,28547.59,28547.59,7185,18053,2009-05-03,2009-06-08,36
1835,"Severe Storm","Covington","Alabama",31.2485,-86.4513,16626.18,9119.44,8707.01,37096,20391,2009-03-25,2009-04-03,9
1840,"Severe Storm","Volusia","Florida",29.0583,-81.1819,3416.11,0,0,546107,23973,2009-05-17,2009-05-28,11
1842,"Severe Storm","Elmore","Alabama",32.5966,-86.1491,2515.92,1370.66,1370.66,81526,23856,2009-05-06,2009-05-08,2
1833,"Severe Storm","Mitchell","Georgia",31.2253,-84.1943,243462.9,200306.17,170399.69,22072,15694,2009-03-26,2009-04-13,18
1831,"Severe Storm","Hamilton","Florida",30.4964,-82.9479,447601.97,341660,275297.75,14397,16295,2009-03-26,2009-05-05,40
1830,"Severe Storm","Traverse","Minnesota",45.7722,-96.4716,13706.32,14616.32,13706.32,3282,28030,2009-03-16,2009-05-22,67
1832,"Severe Storm","DeKalb","Indiana",41.3976,-84.9991,444.33,444.33,444.33,43193,22827,2009-03-08,2009-03-14,6
1820,"Severe Storm","Carter","Oklahoma",34.2509,-97.2858,46639.35,0,0,48380,21476,2009-02-10,2009-02-11,1
1809,"Severe Storm","St. Louis","Missouri",38.6407,-90.4434,15750.51,30336.4,12778.15,996179,NA,2008-09-11,2008-09-24,13
1809,"Severe Storm","St. Louis","Missouri",38.6359,-90.2451,15750.51,30336.4,12778.15,304709,NA,2008-09-11,2008-09-24,13
1795,"Severe Storm","Knox","Indiana",38.6891,-87.418,1386.15,0,0,36833,21047,2008-09-12,2008-10-06,24
1800,"Severe Storm","Grundy","Illinois",41.2851,-88.4185,25765.54,23950.57,21657.13,50798,28725,2008-09-13,2008-10-05,22
1773,"Severe Storm","Lewis","Missouri",40.0969,-91.7221,14174.97,14174.97,14174.97,9898,19317,2008-06-01,2008-08-13,73
1771,"Severe Storm","Coles","Illinois",39.5203,-88.2218,140008.78,64985.98,55315.46,51065,21970,2008-06-01,2008-07-22,51
1770,"Severe Storm","Dawson","Nebraska",40.8699,-99.8196,200.75,200.75,200.75,23638,20142,2008-05-22,2008-06-24,33
1769,"Severe Storm","Wetzel","West Virginia",39.6053,-80.6391,4530.18,4530.18,4530.18,15291,21653,2008-06-03,2008-06-07,4
1768,"Severe Storm","Dodge","Wisconsin",43.4163,-88.7075,266485.95,226274.68,205701.53,87569,24573,2008-06-05,2008-07-25,50
1766,"Severe Storm","Hamilton","Indiana",40.0725,-86.052,19604.29,20826.29,17748.54,330455,39521,2008-05-30,2008-06-27,28
1761,"Severe Storm","Johnson","Georgia",32.7015,-82.6601,731.6,0,0,9717,16807,2008-05-11,2008-05-12,1
1760,"Severe Storm","Newton","Missouri",36.9055,-94.3393,0,0,0,58288,22341,2008-05-10,2008-05-11,1
1758,"Severe Storm","Mississippi","Arkansas",35.7624,-90.0521,95864.31,82620.43,68876.4,41396,NA,2008-05-02,2008-05-12,10
1756,"Severe Storm","Craig","Oklahoma",36.7618,-95.2085,288371.48,0,0,14274,19820,2008-05-10,2008-05-13,3
1753,"Severe Storm","Wilkinson","Mississippi",31.1611,-91.3109,59050.42,60209.63,37939.47,8727,18717,2008-03-20,2008-05-19,60
1751,"Severe Storm","Arkansas","Arkansas",34.2892,-91.3742,0,0,0,17761,22170,2008-03-18,2008-04-28,41
1750,"Severe Storm","Floyd","Georgia",34.2632,-85.2143,1023.25,1981.25,1023.25,97805,20500,2008-03-14,2008-03-16,2
1749,"Severe Storm","Gasconade","Missouri",38.4409,-91.5079,12692.92,14573.92,12692.92,14673,21830,2008-03-17,2008-05-09,53
1764,"Severe Storm","Hinds","Mississippi",32.2667,-90.4429,50247.62,8287.03,6999.03,235604,20448,2008-04-04,2008-04-04,0
1747,"Severe Storm","Livingston","Illinois",40.8916,-88.5577,9134.43,8874.43,8874.43,35757,24952,2008-01-07,2008-03-14,67
1746,"Severe Storm","Harrison","Kentucky",38.4418,-84.3314,210.88,0,0,18763,21424,2008-02-05,2008-02-06,1
1745,"Severe Storm","McNairy","Tennessee",35.1755,-88.5636,30,0,0,25814,18428,2008-02-05,2008-02-06,1
1740,"Severe Storm","Kosciusko","Indiana",41.2441,-85.8607,0,0,0,79156,24881,2008-01-07,2008-03-14,67
1744,"Severe Storm","Baxter","Arkansas",36.2872,-92.3369,6375.62,6375.62,6375.62,41673,21334,2008-02-05,2008-02-12,7
1762,"Severe Storm","Weld","Colorado",40.5548,-104.3925,3838.28,0,0,315389,25468,2008-05-22,2008-05-22,0
1734,"Severe Storm","Wahkiakum","Washington",46.2918,-123.4244,73749.01,33878.01,22943.01,4318,22334,2007-12-01,2007-12-17,16
1733,"Severe Storm","Columbia","Oregon",45.9438,-123.0883,787233.01,370993.2,320159.57,52117,26271,2007-12-01,2007-12-17,16
1738,"Severe Storm","Lyon","Nevada",39.0206,-119.189,1908887.97,1730453.5,1576113.22,55667,21757,2008-01-05,2008-01-10,5
1729,"Severe Storm","Kane","Illinois",41.9388,-88.4286,54622.36,47968.36,39027.18,531756,30082,2007-08-20,2007-08-31,11
1732,"Severe Storm","Lake","Indiana",41.4167,-87.3821,427890.68,316122.74,265440.53,485983,23918,2007-08-15,2007-08-27,12
1720,"Severe Storm","Allen","Ohio",40.7715,-84.1058,1297.34,1297.34,1297.34,102808,22295,2007-08-20,2007-08-28,8
1719,"Severe Storm","Jefferson","Wisconsin",43.0208,-88.7759,0,0,0,84837,25625,2007-08-18,2007-08-31,13
1718,"Severe Storm","Caddo","Oklahoma",35.1744,-98.3752,92794.69,27799.46,21495.81,29179,17858,2007-08-18,2007-09-12,25
1712,"Severe Storm","Delaware","Oklahoma",36.4082,-94.8026,9599.42,9978.42,9599.42,42741,NA,2007-06-10,2007-07-25,45
1722,"Severe Storm","Stephenson","Illinois",42.3518,-89.6623,1156.36,4656.36,4656.36,44683,23350,2007-08-07,2007-08-08,1
1717,"Severe Storm","Dodge","Minnesota",44.0226,-92.862,965.21,965.21,765.22,20807,29107,2007-08-18,2007-08-31,13
1709,"Severe Storm","Atascosa","Texas",28.8935,-98.5272,250.56,0,0,50194,20193,2007-06-16,2007-08-03,48
1730,"Severe Storm","Taylor","Texas",32.3015,-99.8902,0,0,0,137521,23141,2007-08-14,2007-08-20,6
1724,"Severe Storm","Queens","New York",40.7023,-73.8203,10790.3,9595.72,9595.72,2270976,26495,2007-08-08,2007-08-08,0
1726,"Severe Storm","Grand Forks","North Dakota",47.9219,-97.4569,730.15,54.8,54.8,70243,27026,2007-08-26,2007-08-27,1
1708,"Severe Storm","Clay","Missouri",39.3105,-94.4209,35471.87,21528.59,17238.83,246480,29406,2007-05-05,2007-05-18,13
1705,"Severe Storm","Crawford","Iowa",42.0372,-95.382,3262.81,3322.88,2693.09,16998,22748,2007-05-05,2007-05-07,2
1699,"Severe Storm","Phillips","Kansas",39.7846,-99.347,5854.06,691.6,321.62,5297,23772,2007-05-04,2007-06-01,28
1702,"Severe Storm","Marshall","South Dakota",45.7586,-97.5986,683.51,348.19,348.19,4881,24205,2007-05-04,2007-06-08,35
1700,"Severe Storm","Litchfield","Connecticut",41.7925,-73.2453,11093.07,9670.5,9670.5,181143,37667,2007-04-15,2007-04-27,12
1697,"Severe Storm","Denton","Texas",33.2055,-97.1168,47022.54,34290.58,32089.25,861690,33855,2007-04-21,2007-04-24,3
1693,"Severe Storm","Lincoln","Maine",44.0664,-69.5435,1188.33,0,0,34415,28070,2007-04-15,2007-04-23,8
1686,"Severe Storm","Worth","Georgia",31.5515,-83.8509,87384.02,10572.61,10072.61,20346,18551,2007-03-01,2007-03-02,1
1687,"Severe Storm","Wilcox","Alabama",31.9893,-87.3082,2277.07,2132.58,1224.09,10552,13379,2007-03-01,2007-03-01,0
1685,"Severe Storm","Jefferson","Louisiana",29.7872,-90.1274,0,0,0,434903,26908,2007-02-12,2007-02-13,1
1671,"Severe Storm","Skagit","Washington",48.4793,-121.7305,0,0,0,127442,27065,2006-11-02,2006-11-11,9
1695,"Severe Storm","Rockingham","New Hampshire",42.9876,-71.1254,9484.55,20945.4,20945.4,308211,38399,2007-04-15,2007-04-23,8
1690,"Severe Storm","Curry","New Mexico",34.5742,-103.347,1352101.58,528176.25,449115.82,49502,21259,2007-03-23,2007-03-24,1
1679,"Severe Storm","Sumter","Florida",28.7048,-82.081,1073051.88,18600.37,10678.56,129938,27504,2007-02-01,2007-02-02,1
1643,"Severe Storm","Belknap","New Hampshire",43.5179,-71.4227,9696.88,9257.03,9257.03,61174,30518,2006-05-12,2006-05-23,11
1680,"Severe Storm","Volusia","Florida",29.0583,-81.1819,2013349.55,750281.59,700126.68,546107,23973,2006-12-25,2006-12-25,0
1650,"Severe Storm","Otsego","New York",42.6337,-75.0326,15093.06,15048.07,14869.07,59593,24165,2006-06-26,2006-07-10,14
1634,"Severe Storm","Warren","Tennessee",35.6787,-85.7785,86010.6,33459.51,16300,40971,19531,2006-04-02,2006-04-08,6
1665,"Severe Storm","Genesee","New York",43.0009,-78.1937,0,0,0,57554,25403,2006-10-12,2006-10-25,13
1658,"Severe Storm","El Paso","Texas",31.7686,-106.2348,107238.81,37892.18,30752.4,836915,18379,2006-07-27,2006-08-25,29
1649,"Severe Storm","Lancaster","Pennsylvania",40.0424,-76.2477,0,0,0,543050,26496,2006-06-23,2006-07-10,17
1636,"Severe Storm","Randolph","Arkansas",36.3415,-91.0276,2453.41,189.99,0,17934,18871,2006-04-01,2006-04-03,2
1631,"Severe Storm","Mississippi","Missouri",36.8281,-89.2911,116980.95,11603.63,0,13328,NA,2006-03-08,2006-03-13,5
1628,"Severe Storm","Lake","California",39.0996,-122.7532,22793.59,9778.93,9471.22,64276,21537,2005-12-17,2006-01-03,17
1662,"Severe Storm","Vanderburgh","Indiana",38.0249,-87.5859,24810.12,25766.48,25766.48,181548,24378,2006-09-12,2006-09-14,2
1651,"Severe Storm","Cuyahoga","Ohio",41.4243,-81.6586,12777.78,11114.49,11114.49,1241475,27423,2006-06-21,2006-06-23,2
1640,"Severe Storm","Kauai","Hawaii",22.0398,-159.5966,215239.03,39517.6,29136.92,71949,26658,2006-02-20,2006-04-02,41
1644,"Severe Storm","York","Maine",43.4782,-70.7144,16399.59,15349.7,12166.76,206074,29125,2006-05-13,2006-05-23,10
1642,"Severe Storm","Essex","Massachusetts",42.6732,-70.952,212635.07,122545.03,113223.12,787038,35167,2006-05-12,2006-05-23,11
1633,"Severe Storm","Sangamon","Illinois",39.7582,-89.6589,625540.8,176262.45,101332.13,195963,29974,2006-03-11,2006-03-13,2
1653,"Severe Storm","Mercer","New Jersey",40.2834,-74.7018,1297.56,0,0,368085,37465,2006-06-23,2006-07-10,17
1635,"Severe Storm","Andrew","Missouri",39.9835,-94.8021,79765.49,1290,0,17554,25302,2006-03-30,2006-04-03,4
1610,"Severe Storm","Hillsborough","New Hampshire",42.9153,-71.7161,1161.88,1161.88,1161.88,415305,34390,2005-10-07,2005-10-18,11
1656,"Severe Storm","Geauga","Ohio",41.4995,-81.1786,4297.96,9035.52,9035.52,93657,34455,2006-07-27,2006-08-04,8
1637,"Severe Storm","Delaware","Oklahoma",36.4082,-94.8026,357146.2,54792.84,50781.27,42741,NA,2006-03-12,2006-03-12,0
1614,"Severe Storm","Bristol","Massachusetts",41.7972,-71.1144,23717.2,25129.08,19424.69,563301,28837,2005-10-07,2005-10-16,9
1587,"Severe Storm","Luzerne","Pennsylvania",41.177,-75.9891,0,0,0,317547,24793,2005-04-02,2005-04-23,21
1588,"Severe Storm","Essex","New Jersey",40.7872,-74.2471,3461.24,0,0,798698,32181,2005-04-01,2005-04-03,2
1580,"Severe Storm","Darke","Ohio",40.1333,-84.6194,45048.59,39936.03,11394.23,51387,22511,2004-12-22,2005-02-01,41
1617,"Severe Storm","Hopkins","Kentucky",37.3088,-87.5408,420205.23,43446.62,20299.46,45044,22132,2005-11-15,2005-11-15,0
1577,"Severe Storm","Los Angeles","California",34.3209,-118.2247,48725.4,40633.32,33973.4,10040682,27749,2004-12-27,2005-01-11,15
1573,"Severe Storm","Johnson","Indiana",39.49,-86.1016,6621.61,4021.61,3884.59,156148,28575,2005-01-01,2005-02-11,41
1569,"Severe Storm","Steele","Minnesota",44.0223,-93.226,39651.56,25269.16,21193.61,36710,27259,2004-09-14,2004-09-27,13
1564,"Severe Storm","Monroe","New York",43.1464,-77.6961,30025.27,30569.65,20070.7,743084,28732,2004-08-13,2004-09-16,34
1558,"Severe Storm","Cabell","West Virginia",38.4203,-82.2417,1523.73,1523.73,1523.73,93328,23647,2004-09-16,2004-09-27,11
1563,"Severe Storm","Sussex","New Jersey",41.1393,-74.6908,1644.8,1300,1300,140996,37949,2004-09-18,2004-10-01,13
1570,"Severe Storm","Montgomery","Virginia",37.1743,-80.3872,10100.23,7172.92,3900,98495,23548,2004-09-27,2004-09-30,3
1556,"Severe Storm","Mahoning","Ohio",41.0146,-80.7763,0,0,0,228452,23975,2004-08-27,2004-09-27,31
1565,"Severe Storm","Ulster","New York",41.8881,-74.2586,369.15,369.15,0,178371,30442,2004-09-16,2004-09-24,8
1544,"Severe Storm","Charles City","Virginia",37.3567,-77.0622,5924.55,7113.54,4537.54,6965,NA,2004-08-30,2004-09-08,9
1555,"Severe Storm","Beaver","Pennsylvania",40.6823,-80.3493,21453.78,20011.41,10159.98,164781,26258,2004-09-08,2004-09-09,1
1538,"Severe Storm","Delaware","Pennsylvania",39.9167,-75.3991,0,0,0,565328,NA,2004-07-27,2004-08-25,29
1536,"Severe Storm","Logan","West Virginia",37.8315,-81.9353,6114.31,7120.31,5405.85,32593,19901,2004-07-22,2004-09-01,41
1527,"Severe Storm","Barry","Michigan",42.595,-85.309,0,0,0,61045,25059,2004-05-20,2004-06-08,19
1526,"Severe Storm","Chippewa","Wisconsin",45.0694,-91.2799,0,0,0,64175,24628,2004-05-07,2004-07-03,57
1524,"Severe Storm","Linn","Missouri",39.8702,-93.1072,0,0,0,12004,21015,2004-05-18,2004-05-31,13
1523,"Severe Storm","Caldwell","Kentucky",37.1453,-87.8679,43.2,0,0,12679,20327,2004-05-26,2004-06-18,23
1522,"Severe Storm","Cabell","West Virginia",38.4203,-82.2417,19943.22,25600,5859.52,93328,23647,2004-05-27,2004-06-28,32
1521,"Severe Storm","Livingston","Louisiana",30.4401,-90.7279,12385.25,13232.54,7745.18,140524,25076,2004-05-12,2004-05-19,7
1520,"Severe Storm","Gibson","Indiana",38.3119,-87.5846,3444.22,3046.92,2558.61,33711,24258,2004-05-25,2004-06-25,31
1525,"Severe Storm","Russell","Virginia",36.9339,-82.0954,4128.71,2553.36,2553.36,26937,19735,2004-05-24,2004-06-26,33
1530,"Severe Storm","Burlington","New Jersey",39.8777,-74.6681,74600.02,66468.46,55563.9,446301,36835,2004-07-12,2004-07-23,11
1518,"Severe Storm","Buena Vista","Iowa",42.7355,-95.1511,0,0,0,19950,22899,2004-05-19,2004-06-24,36
1517,"Severe Storm","Otoe","Nebraska",40.6485,-96.1348,1698.71,0,0,15965,25855,2004-05-20,2004-06-01,12
1519,"Severe Storm","Lorain","Ohio",41.2956,-82.151,114558.25,80792.23,65873.38,309134,26030,2004-05-18,2004-06-21,34
1507,"Severe Storm","Ross","Ohio",39.3376,-83.057,0,0,0,76816,21310,2004-01-03,2004-01-30,27
1500,"Severe Storm","Gilmer","West Virginia",38.9241,-80.8571,0,0,0,7970,17870,2003-11-11,2003-11-30,19
1499,"Severe Storm","Kitsap","Washington",47.613,-122.6716,2843.92,5930.03,5930.03,268945,31769,2003-10-15,2003-10-23,8
1502,"Severe Storm","Bland","Virginia",37.134,-81.1302,25281.72,10090.09,10090.09,6334,18501,2003-11-18,2003-11-19,1
1487,"Severe Storm","Hancock","Indiana",39.8236,-85.7732,1950.9,1950.9,1950.9,76614,28111,2003-08-26,2003-09-15,20
1497,"Severe Storm","Chester","Pennsylvania",39.9731,-75.7484,116336.21,51980.02,36060.83,521980,42210,2003-09-15,2003-09-23,8
1485,"Severe Storm","Warren","Pennsylvania",41.8145,-79.2741,813.43,813.43,813.43,39466,24179,2003-07-21,2003-09-12,53
1478,"Severe Storm","Mercer","Ohio",40.5399,-84.6294,3456.55,2256.55,2256.55,41034,24157,2003-07-04,2003-07-11,7
1476,"Severe Storm","Boone","Indiana",40.0508,-86.4687,12077.25,12745.69,10591.69,66875,37482,2003-07-04,2003-08-06,33
1482,"Severe Storm","Fayette","Tennessee",35.1971,-89.4144,270.11,270.11,270.11,40612,28201,2003-07-21,2003-07-22,1
1475,"Severe Storm","Leslie","Kentucky",37.0941,-83.3811,1856.18,1856.18,1856.18,10081,16424,2003-06-14,2003-06-27,13
1474,"Severe Storm","Logan","West Virginia",37.8315,-81.9353,5207.16,5207.16,4780.53,32593,19901,2003-06-11,2003-07-15,34
1472,"Severe Storm","Columbia","Arkansas",33.2143,-93.2273,78197.71,70179.51,43917.58,23620,19439,2003-05-02,2003-06-10,39
1471,"Severe Storm","Breckinridge","Kentucky",37.7732,-86.4293,308.6,308.6,308.6,20283,18101,2003-05-04,2003-05-27,23
1470,"Severe Storm","Calhoun","Mississippi",33.9365,-89.3365,1129,804.04,804.04,14417,17034,2003-05-05,2003-05-08,3
1459,"Severe Storm","Simpson","Mississippi",31.9132,-89.9195,6717.61,5078.98,3621.88,26818,18314,2003-04-06,2003-04-25,19
1466,"Severe Storm","Coosa","Alabama",32.9362,-86.2477,0,0,0,10696,18493,2003-05-05,2003-05-30,25
1465,"Severe Storm","Grady","Oklahoma",35.0169,-97.8841,1933.74,1933.74,1724.66,55315,23500,2003-05-08,2003-05-30,22
1469,"Severe Storm","Massac","Illinois",37.2189,-88.7076,28627.46,19257.03,14585.95,14041,22047,2003-05-06,2003-05-11,5
1464,"Severe Storm","Coffee","Tennessee",35.4906,-86.0748,2564.79,2564.79,2564.79,56024,20357,2003-05-04,2003-05-30,26
1463,"Severe Storm","Clinton","Missouri",39.6018,-94.4046,0,0,0,20503,25100,2003-05-04,2003-05-30,26
1462,"Severe Storm","Cherokee","Kansas",37.1693,-94.8463,91090.71,73444.75,27416.75,20017,19580,2003-05-04,2003-05-30,26
1461,"Severe Storm","Kenai Peninsula","Alaska",60.2654,-151.5652,16368.6,23537.94,14557.51,58809,31256,2003-03-06,2003-03-14,8
1460,"Severe Storm","Miami-Dade","Florida",25.6149,-80.5623,0,0,0,2705528,23174,2003-03-27,2003-03-27,0
1455,"Severe Storm","Greenbrier","West Virginia",37.947,-80.453,1146.87,1146.87,1146.87,34893,21720,2003-02-16,2003-03-28,40
1454,"Severe Storm","Lawrence","Kentucky",38.0679,-82.7348,4397.9,4397.9,4397.9,15604,17960,2003-02-15,2003-02-26,11
1453,"Severe Storm","Jackson","Ohio",39.0197,-82.6184,22072.93,17004.55,10469.58,32440,19405,2003-02-14,2003-03-18,32
1445,"Severe Storm","Kodiak Island","Alaska",57.6807,-153.7972,0,550,0,13383,28562,2002-10-23,2002-12-20,58
1444,"Severe Storm","Huron","Ohio",41.1463,-82.598,2747.8,0,0,58271,22257,2002-11-10,2002-11-10,0
1442,"Severe Storm","Barbour","Alabama",31.8696,-85.3932,205.59,205.59,205.59,25026,16829,2002-11-05,2002-11-12,7
1441,"Severe Storm","Bledsoe","Tennessee",35.5964,-85.2051,15121.28,13784.1,11775.91,14961,15747,2002-11-09,2002-11-12,3
1458,"Severe Storm","Russell","Virginia",36.9339,-82.0954,6195.81,6973.81,6195.81,26937,19735,2003-02-15,2003-02-28,13
1443,"Severe Storm","Clay","Mississippi",33.6557,-88.7816,4204.34,3015.1,1839.31,19515,18273,2002-11-10,2002-11-11,1
1439,"Severe Storm","Hidalgo","Texas",26.3967,-98.1811,867.27,867.27,867.27,861137,14222,2002-10-24,2002-11-15,22
